{
"type": "FeatureCollection",
"name": "ankiety_obiekty",
"crs": { "type": "name", "properties": { "name": "urn:ogc:def:crs:OGC:1.3:CRS84" } },
"features": [
{ "type": "Feature", "properties": { "Kategoria": "Obszary Zielone", "Miejscowos": "Lublin", "Ulica": "Aleje Racławickie", "Numer": "14", "Nazwa": "Ogród Saski", "Cz1_All": 106, "Cz2_All": 79, "Cz1_UMCS": 42, "Cz2_UMCS": 34, "Cz1_UP": 37, "Cz2_UP": 24, "Cz1_KUL": 15, "Cz2_KUL": 10 }, "geometry": { "type": "Point", "coordinates": [ 22.550769640324926, 51.247770147655736 ] } },
{ "type": "Feature", "properties": { "Kategoria": "Miejsca kultury", "Miejscowos": "Lublin", "Ulica": "Lipowa", "Numer": "13", "Nazwa": "Cinema City Plaza", "Cz1_All": 90, "Cz2_All": 40, "Cz1_UMCS": 21, "Cz2_UMCS": 11, "Cz1_UP": 35, "Cz2_UP": 11, "Cz1_KUL": 15, "Cz2_KUL": 4 }, "geometry": { "type": "Point", "coordinates": [ 22.551981137974046, 51.244919779505992 ] } },
{ "type": "Feature", "properties": { "Kategoria": "Muzea", "Miejscowos": "Lublin", "Ulica": "Zamkowa", "Numer": "1", "Nazwa": "Muzeum na Zamku", "Cz1_All": 60, "Cz2_All": 65, "Cz1_UMCS": 14, "Cz2_UMCS": 28, "Cz1_UP": 12, "Cz2_UP": 14, "Cz1_KUL": 8, "Cz2_KUL": 10 }, "geometry": { "type": "Point", "coordinates": [ 22.571730691071547, 51.250517610122031 ] } },
{ "type": "Feature", "properties": { "Kategoria": "Muzea", "Miejscowos": "Lublin", "Ulica": "Aleja Warszawska", "Numer": "96", "Nazwa": "Muzeum Wsi Lubelskiej", "Cz1_All": 55, "Cz2_All": 53, "Cz1_UMCS": 12, "Cz2_UMCS": 26, "Cz1_UP": 15, "Cz2_UP": 11, "Cz1_KUL": 9, "Cz2_KUL": 4 }, "geometry": { "type": "Point", "coordinates": [ 22.505601910079982, 51.262603373430046 ] } },
{ "type": "Feature", "properties": { "Kategoria": "Muzea", "Miejscowos": "Lublin", "Ulica": "Droga Męczenników Majdanka", "Numer": "67", "Nazwa": "Muzeum na Majdanku", "Cz1_All": 54, "Cz2_All": 51, "Cz1_UMCS": 14, "Cz2_UMCS": 22, "Cz1_UP": 16, "Cz2_UP": 15, "Cz1_KUL": 6, "Cz2_KUL": 5 }, "geometry": { "type": "Point", "coordinates": [ 22.606321901965085, 51.225329489669754 ] } },
{ "type": "Feature", "properties": { "Kategoria": "Miejsca kultury", "Miejscowos": "Lublin", "Ulica": "Peowiaków", "Numer": "12", "Nazwa": "Centrum Kultury", "Cz1_All": 53, "Cz2_All": 58, "Cz1_UMCS": 11, "Cz2_UMCS": 15, "Cz1_UP": 14, "Cz2_UP": 14, "Cz1_KUL": 6, "Cz2_KUL": 6 }, "geometry": { "type": "Point", "coordinates": [ 22.557943533585888, 51.246565475591886 ] } },
{ "type": "Feature", "properties": { "Kategoria": "Kluby", "Miejscowos": "Lublin", "Ulica": "Zesłańców Sybiru", "Numer": "5", "Nazwa": "Helium", "Cz1_All": 48, "Cz2_All": 32, "Cz1_UMCS": 19, "Cz2_UMCS": 14, "Cz1_UP": 16, "Cz2_UP": 13, "Cz1_KUL": 10, "Cz2_KUL": 4 }, "geometry": { "type": "Point", "coordinates": [ 22.557718949052095, 51.245392500249054 ] } },
{ "type": "Feature", "properties": { "Kategoria": "Miejsca kultury", "Miejscowos": "Lublin", "Ulica": "Spółdzielczości pracy", "Numer": "36b", "Nazwa": "Multikino Olimp", "Cz1_All": 41, "Cz2_All": 17, "Cz1_UMCS": 13, "Cz2_UMCS": 5, "Cz1_UP": 11, "Cz2_UP": 4, "Cz1_KUL": 4, "Cz2_KUL": 0 }, "geometry": { "type": "Point", "coordinates": [ 22.57145811173957, 51.267114195422089 ] } },
{ "type": "Feature", "properties": { "Kategoria": "Obszary Zielone", "Miejscowos": "Lublin", "Ulica": "Willowa", "Numer": "58", "Nazwa": "Ogród Botaniczny UMCS", "Cz1_All": 39, "Cz2_All": 62, "Cz1_UMCS": 17, "Cz2_UMCS": 28, "Cz1_UP": 14, "Cz2_UP": 21, "Cz1_KUL": 3, "Cz2_KUL": 7 }, "geometry": { "type": "Point", "coordinates": [ 22.516713194703943, 51.265656625418295 ] } },
{ "type": "Feature", "properties": { "Kategoria": "Miejsca kultury", "Miejscowos": "Lublin", "Ulica": "Wincentego Witosa", "Numer": "32", "Nazwa": "Cinema City Felicity", "Cz1_All": 38, "Cz2_All": 22, "Cz1_UMCS": 9, "Cz2_UMCS": 5, "Cz1_UP": 12, "Cz2_UP": 8, "Cz1_KUL": 5, "Cz2_KUL": 1 }, "geometry": { "type": "Point", "coordinates": [ 22.614746500387433, 51.231580999454728 ] } },
{ "type": "Feature", "properties": { "Kategoria": "Restauracje", "Miejscowos": "Lublin", "Ulica": "Krakowskie przedmieście", "Numer": "51", "Nazwa": "ParZona", "Cz1_All": 12, "Cz2_All": 8, "Cz1_UMCS": 1, "Cz2_UMCS": 0, "Cz1_UP": 5, "Cz2_UP": 5, "Cz1_KUL": 4, "Cz2_KUL": 0 }, "geometry": { "type": "Point", "coordinates": [ 22.553493121312933, 51.247808685350641 ] } },
{ "type": "Feature", "properties": { "Kategoria": "Restauracje", "Miejscowos": "Lublin", "Ulica": "Krakowskie przedmieście", "Numer": "25", "Nazwa": "Ostro", "Cz1_All": 34, "Cz2_All": 18, "Cz1_UMCS": 15, "Cz2_UMCS": 11, "Cz1_UP": 10, "Cz2_UP": 3, "Cz1_KUL": 5, "Cz2_KUL": 3 }, "geometry": { "type": "Point", "coordinates": [ 22.562415068750528, 51.247977467240759 ] } },
{ "type": "Feature", "properties": { "Kategoria": "Miejsca kultury", "Miejscowos": "Lublin", "Ulica": "Radziszewskiego", "Numer": "8", "Nazwa": "Kino Bajka", "Cz1_All": 29, "Cz2_All": 17, "Cz1_UMCS": 6, "Cz2_UMCS": 2, "Cz1_UP": 8, "Cz2_UP": 7, "Cz1_KUL": 3, "Cz2_KUL": 2 }, "geometry": { "type": "Point", "coordinates": [ 22.543879578393071, 51.246457827148475 ] } },
{ "type": "Feature", "properties": { "Kategoria": "Miejsca kultury", "Miejscowos": "Lublin", "Ulica": "Narutowicza", "Numer": "17", "Nazwa": "Teatr im. J. Osterwy", "Cz1_All": 25, "Cz2_All": 22, "Cz1_UMCS": 4, "Cz2_UMCS": 5, "Cz1_UP": 3, "Cz2_UP": 3, "Cz1_KUL": 5, "Cz2_KUL": 3 }, "geometry": { "type": "Point", "coordinates": [ 22.561556785481415, 51.246452988118847 ] } },
{ "type": "Feature", "properties": { "Kategoria": "Muzea", "Miejscowos": "Lublin", "Ulica": "Rynek", "Numer": "1", "Nazwa": "Lubelska Trasa Podziemna", "Cz1_All": 25, "Cz2_All": 32, "Cz1_UMCS": 6, "Cz2_UMCS": 11, "Cz1_UP": 7, "Cz2_UP": 9, "Cz1_KUL": 3, "Cz2_KUL": 4 }, "geometry": { "type": "Point", "coordinates": [ 22.56780599563794, 51.247894623264756 ] } },
{ "type": "Feature", "properties": { "Kategoria": "Miejsca kultury", "Miejscowos": "Lublin", "Ulica": "Bernardyńska", "Numer": "15", "Nazwa": "Kino Perła", "Cz1_All": 16, "Cz2_All": 18, "Cz1_UMCS": 3, "Cz2_UMCS": 2, "Cz1_UP": 3, "Cz2_UP": 5, "Cz1_KUL": 2, "Cz2_KUL": 0 }, "geometry": { "type": "Point", "coordinates": [ 22.567567147585656, 51.244005159722263 ] } },
{ "type": "Feature", "properties": { "Kategoria": "Restauracje", "Miejscowos": "Lublin", "Ulica": "Grodzka", "Numer": "18", "Nazwa": "U Szewca", "Cz1_All": 12, "Cz2_All": 10, "Cz1_UMCS": 3, "Cz2_UMCS": 6, "Cz1_UP": 3, "Cz2_UP": 3, "Cz1_KUL": 3, "Cz2_KUL": 0 }, "geometry": { "type": "Point", "coordinates": [ 22.568892434419567, 51.249008315698461 ] } },
{ "type": "Feature", "properties": { "Kategoria": "Kluby", "Miejscowos": "Lublin", "Ulica": "Krakowskie Przedmieście", "Numer": "19", "Nazwa": "Dom Kultury", "Cz1_All": 14, "Cz2_All": 11, "Cz1_UMCS": 7, "Cz2_UMCS": 6, "Cz1_UP": 6, "Cz2_UP": 3, "Cz1_KUL": 0, "Cz2_KUL": 0 }, "geometry": { "type": "Point", "coordinates": [ 22.563390846266124, 51.247837772021562 ] } },
{ "type": "Feature", "properties": { "Kategoria": "Restauracje", "Miejscowos": "Lublin", "Ulica": "Stanisława Staszica", "Numer": "1", "Nazwa": "Sexy Duck by Enzo Muratore", "Cz1_All": 3, "Cz2_All": 4, "Cz1_UMCS": 1, "Cz2_UMCS": 1, "Cz1_UP": 1, "Cz2_UP": 3, "Cz1_KUL": 0, "Cz2_KUL": 0 }, "geometry": { "type": "Point", "coordinates": [ 22.562464143067825, 51.248241885311053 ] } },
{ "type": "Feature", "properties": { "Kategoria": "Restauracje", "Miejscowos": "Lublin", "Ulica": "Grodzka", "Numer": "16", "Nazwa": "Queen Mama", "Cz1_All": 5, "Cz2_All": 5, "Cz1_UMCS": 1, "Cz2_UMCS": 3, "Cz1_UP": 4, "Cz2_UP": 2, "Cz1_KUL": 0, "Cz2_KUL": 0 }, "geometry": { "type": "Point", "coordinates": [ 22.568676870378734, 51.248823264565523 ] } },
{ "type": "Feature", "properties": { "Kategoria": "Miejsca kultury", "Miejscowos": "Lublin", "Ulica": "Jezuicka", "Numer": "18", "Nazwa": "Teatr Stary", "Cz1_All": 12, "Cz2_All": 15, "Cz1_UMCS": 3, "Cz2_UMCS": 4, "Cz1_UP": 4, "Cz2_UP": 4, "Cz1_KUL": 2, "Cz2_KUL": 4 }, "geometry": { "type": "Point", "coordinates": [ 22.569186790109079, 51.247286789326949 ] } },
{ "type": "Feature", "properties": { "Kategoria": "Muzea", "Miejscowos": "Lublin", "Ulica": "Łokietka", "Numer": "3", "Nazwa": "Muzeum Historii Miasta Lublin", "Cz1_All": 10, "Cz2_All": 8, "Cz1_UMCS": 1, "Cz2_UMCS": 3, "Cz1_UP": 3, "Cz2_UP": 2, "Cz1_KUL": 1, "Cz2_KUL": 1 }, "geometry": { "type": "Point", "coordinates": [ 22.566437381951204, 51.247383782799496 ] } },
{ "type": "Feature", "properties": { "Kategoria": "Restauracje", "Miejscowos": "Lublin", "Ulica": "grodzka", "Numer": "1", "Nazwa": "Padbar", "Cz1_All": 9, "Cz2_All": 3, "Cz1_UMCS": 4, "Cz2_UMCS": 1, "Cz1_UP": 3, "Cz2_UP": 2, "Cz1_KUL": 2, "Cz2_KUL": 0 }, "geometry": { "type": "Point", "coordinates": [ 22.568202751528961, 51.248321780930482 ] } },
{ "type": "Feature", "properties": { "Kategoria": "Restauracje", "Miejscowos": "Lublin", "Ulica": "Orla", "Numer": "6", "Nazwa": "Mrau Cafe", "Cz1_All": 6, "Cz2_All": 4, "Cz1_UMCS": 1, "Cz2_UMCS": 2, "Cz1_UP": 3, "Cz2_UP": 2, "Cz1_KUL": 2, "Cz2_KUL": 0 }, "geometry": { "type": "Point", "coordinates": [ 22.555884523481922, 51.244797315694449 ] } },
{ "type": "Feature", "properties": { "Kategoria": "Restauracje", "Miejscowos": "Lublin", "Ulica": "Bernardyńska", "Numer": "15", "Nazwa": "Perłowa Pijalnia", "Cz1_All": 4, "Cz2_All": 2, "Cz1_UMCS": 0, "Cz2_UMCS": 0, "Cz1_UP": 3, "Cz2_UP": 2, "Cz1_KUL": 0, "Cz2_KUL": 0 }, "geometry": { "type": "Point", "coordinates": [ 22.567389566838411, 51.24421527958642 ] } },
{ "type": "Feature", "properties": { "Kategoria": "Restauracje", "Miejscowos": "Lublin", "Ulica": "Krakowskie przedmieście", "Numer": "24", "Nazwa": "Pijalnia Wódki i Piwa", "Cz1_All": 4, "Cz2_All": 4, "Cz1_UMCS": 2, "Cz2_UMCS": 2, "Cz1_UP": 2, "Cz2_UP": 2, "Cz1_KUL": 0, "Cz2_KUL": 0 }, "geometry": { "type": "Point", "coordinates": [ 22.56327882580371, 51.247654946244076 ] } },
{ "type": "Feature", "properties": { "Kategoria": "Kluby", "Miejscowos": "Lublin", "Ulica": "Zesłańców Sybiru", "Numer": "5", "Nazwa": "Cubano", "Cz1_All": 7, "Cz2_All": 3, "Cz1_UMCS": 3, "Cz2_UMCS": 1, "Cz1_UP": 2, "Cz2_UP": 1, "Cz1_KUL": 2, "Cz2_KUL": 1 }, "geometry": { "type": "Point", "coordinates": [ 22.557718949052095, 51.245392500249054 ] } },
{ "type": "Feature", "properties": { "Kategoria": "Kluby", "Miejscowos": "Lublin", "Ulica": "Zesłańców Sybiru", "Numer": "5", "Nazwa": "Rzut Beretem", "Cz1_All": 7, "Cz2_All": 3, "Cz1_UMCS": 4, "Cz2_UMCS": 3, "Cz1_UP": 2, "Cz2_UP": 0, "Cz1_KUL": 1, "Cz2_KUL": 0 }, "geometry": { "type": "Point", "coordinates": [ 22.557718949052095, 51.245392500249054 ] } },
{ "type": "Feature", "properties": { "Kategoria": "Kluby", "Miejscowos": "Lublin", "Ulica": "Zesłańców Sybiru", "Numer": "5", "Nazwa": "Riviera", "Cz1_All": 7, "Cz2_All": 1, "Cz1_UMCS": 3, "Cz2_UMCS": 0, "Cz1_UP": 2, "Cz2_UP": 1, "Cz1_KUL": 1, "Cz2_KUL": 0 }, "geometry": { "type": "Point", "coordinates": [ 22.557718949052095, 51.245392500249054 ] } },
{ "type": "Feature", "properties": { "Kategoria": "Restauracje", "Miejscowos": "Lublin", "Ulica": "Rynek", "Numer": "10", "Nazwa": "Mandragora", "Cz1_All": 1, "Cz2_All": 3, "Cz1_UMCS": 0, "Cz2_UMCS": 1, "Cz1_UP": 0, "Cz2_UP": 2, "Cz1_KUL": 0, "Cz2_KUL": 0 }, "geometry": { "type": "Point", "coordinates": [ 22.568423011234081, 51.247723569990391 ] } },
{ "type": "Feature", "properties": { "Kategoria": "Miejsca kultury", "Miejscowos": "Lublin", "Ulica": "Marii Curie-Skłodowskiej", "Numer": "5", "Nazwa": "Teatr Muzyczny", "Cz1_All": 7, "Cz2_All": 20, "Cz1_UMCS": 2, "Cz2_UMCS": 7, "Cz1_UP": 3, "Cz2_UP": 5, "Cz1_KUL": 0, "Cz2_KUL": 4 }, "geometry": { "type": "Point", "coordinates": [ 22.548483040922672, 51.246184222600867 ] } },
{ "type": "Feature", "properties": { "Kategoria": "Restauracje", "Miejscowos": "Lublin", "Ulica": "Grodzka", "Numer": "16", "Nazwa": "Św. Michał", "Cz1_All": 8, "Cz2_All": 8, "Cz1_UMCS": 2, "Cz2_UMCS": 4, "Cz1_UP": 4, "Cz2_UP": 1, "Cz1_KUL": 1, "Cz2_KUL": 0 }, "geometry": { "type": "Point", "coordinates": [ 22.568676870378734, 51.248823264565523 ] } },
{ "type": "Feature", "properties": { "Kategoria": "Restauracje", "Miejscowos": "Lublin", "Ulica": "Krakowskie przedmieście", "Numer": "52", "Nazwa": "McDonald Pl. Litewski", "Cz1_All": 14, "Cz2_All": 5, "Cz1_UMCS": 6, "Cz2_UMCS": 3, "Cz1_UP": 3, "Cz2_UP": 1, "Cz1_KUL": 2, "Cz2_KUL": 0 }, "geometry": { "type": "Point", "coordinates": [ 22.558603374662507, 51.247713635108362 ] } },
{ "type": "Feature", "properties": { "Kategoria": "Miejsca kultury", "Miejscowos": "Lublin", "Ulica": "Grodzka", "Numer": "21", "Nazwa": "Teatr NN", "Cz1_All": 6, "Cz2_All": 7, "Cz1_UMCS": 1, "Cz2_UMCS": 2, "Cz1_UP": 0, "Cz2_UP": 0, "Cz1_KUL": 1, "Cz2_KUL": 2 }, "geometry": { "type": "Point", "coordinates": [ 22.569955676997051, 51.249640760973278 ] } },
{ "type": "Feature", "properties": { "Kategoria": "Restauracje", "Miejscowos": "Lublin", "Ulica": "Krakowskie przedmieście", "Numer": "10", "Nazwa": "Pelier", "Cz1_All": 9, "Cz2_All": 2, "Cz1_UMCS": 2, "Cz2_UMCS": 2, "Cz1_UP": 3, "Cz2_UP": 1, "Cz1_KUL": 2, "Cz2_KUL": 0 }, "geometry": { "type": "Point", "coordinates": [ 22.564692621823617, 51.247467951768002 ] } },
{ "type": "Feature", "properties": { "Kategoria": "Muzea", "Miejscowos": "Lublin", "Ulica": "Złota", "Numer": "3", "Nazwa": "Muzeum Józefa Czechowicza", "Cz1_All": 6, "Cz2_All": 6, "Cz1_UMCS": 0, "Cz2_UMCS": 3, "Cz1_UP": 0, "Cz2_UP": 2, "Cz1_KUL": 0, "Cz2_KUL": 0 }, "geometry": { "type": "Point", "coordinates": [ 22.569066215980087, 51.247856535869985 ] } },
{ "type": "Feature", "properties": { "Kategoria": "Restauracje", "Miejscowos": "Lublin", "Ulica": "Marii Curie-Skłodowskiej", "Numer": "3", "Nazwa": "Red Rock City", "Cz1_All": 6, "Cz2_All": 3, "Cz1_UMCS": 3, "Cz2_UMCS": 2, "Cz1_UP": 3, "Cz2_UP": 1, "Cz1_KUL": 0, "Cz2_KUL": 0 }, "geometry": { "type": "Point", "coordinates": [ 22.549190934638951, 51.246087924086609 ] } },
{ "type": "Feature", "properties": { "Kategoria": "Restauracje", "Miejscowos": "Lublin", "Ulica": "Radziszewskiego", "Numer": "8", "Nazwa": "Mojo", "Cz1_All": 5, "Cz2_All": 3, "Cz1_UMCS": 2, "Cz2_UMCS": 2, "Cz1_UP": 3, "Cz2_UP": 1, "Cz1_KUL": 0, "Cz2_KUL": 0 }, "geometry": { "type": "Point", "coordinates": [ 22.543976831655012, 51.246419216100563 ] } },
{ "type": "Feature", "properties": { "Kategoria": "Restauracje", "Miejscowos": "Lublin", "Ulica": "Gęsia", "Numer": "5", "Nazwa": "Bombardino", "Cz1_All": 4, "Cz2_All": 2, "Cz1_UMCS": 1, "Cz2_UMCS": 1, "Cz1_UP": 2, "Cz2_UP": 1, "Cz1_KUL": 2, "Cz2_KUL": 0 }, "geometry": { "type": "Point", "coordinates": [ 22.480407961199116, 51.228249864463066 ] } },
{ "type": "Feature", "properties": { "Kategoria": "Muzea", "Miejscowos": "Lublin", "Ulica": "Królewska", "Numer": "10", "Nazwa": "Muzeum Archidiecezjalne", "Cz1_All": 4, "Cz2_All": 1, "Cz1_UMCS": 0, "Cz2_UMCS": 0, "Cz1_UP": 0, "Cz2_UP": 0, "Cz1_KUL": 2, "Cz2_KUL": 1 }, "geometry": { "type": "Point", "coordinates": [ 22.568292129502581, 51.246721137853051 ] } },
{ "type": "Feature", "properties": { "Kategoria": "Restauracje", "Miejscowos": "Lublin", "Ulica": "Rynek", "Numer": "4", "Nazwa": "Trybunalska", "Cz1_All": 4, "Cz2_All": 3, "Cz1_UMCS": 0, "Cz2_UMCS": 1, "Cz1_UP": 2, "Cz2_UP": 1, "Cz1_KUL": 0, "Cz2_KUL": 0 }, "geometry": { "type": "Point", "coordinates": [ 22.567572997291609, 51.248082930031472 ] } },
{ "type": "Feature", "properties": { "Kategoria": "Restauracje", "Miejscowos": "Lublin", "Ulica": "Nadbystrzycka", "Numer": "25", "Nazwa": "Koper Włoski", "Cz1_All": 3, "Cz2_All": 2, "Cz1_UMCS": 1, "Cz2_UMCS": 1, "Cz1_UP": 2, "Cz2_UP": 1, "Cz1_KUL": 0, "Cz2_KUL": 0 }, "geometry": { "type": "Point", "coordinates": [ 22.54854581820182, 51.237263230806278 ] } },
{ "type": "Feature", "properties": { "Kategoria": "Restauracje", "Miejscowos": "Lublin", "Ulica": "Radziszewskiego", "Numer": "8", "Nazwa": "Plackarnia", "Cz1_All": 4, "Cz2_All": 2, "Cz1_UMCS": 1, "Cz2_UMCS": 1, "Cz1_UP": 1, "Cz2_UP": 1, "Cz1_KUL": 2, "Cz2_KUL": 0 }, "geometry": { "type": "Point", "coordinates": [ 22.543575925828744, 51.246433683514844 ] } },
{ "type": "Feature", "properties": { "Kategoria": "Restauracje", "Miejscowos": "Lublin", "Ulica": "Przechodnia", "Numer": "4", "Nazwa": "Ministerstwo Śledzia i Wódki", "Cz1_All": 3, "Cz2_All": 3, "Cz1_UMCS": 2, "Cz2_UMCS": 2, "Cz1_UP": 1, "Cz2_UP": 1, "Cz1_KUL": 0, "Cz2_KUL": 0 }, "geometry": { "type": "Point", "coordinates": [ 22.564445931117845, 51.247040336821442 ] } },
{ "type": "Feature", "properties": { "Kategoria": "Kluby", "Miejscowos": "Lublin", "Ulica": "Radziszewskiego", "Numer": "8", "Nazwa": "Silence", "Cz1_All": 4, "Cz2_All": 3, "Cz1_UMCS": 4, "Cz2_UMCS": 3, "Cz1_UP": 0, "Cz2_UP": 0, "Cz1_KUL": 0, "Cz2_KUL": 0 }, "geometry": { "type": "Point", "coordinates": [ 22.543977532804497, 51.246418732321338 ] } },
{ "type": "Feature", "properties": { "Kategoria": "Kluby", "Miejscowos": "Lublin", "Ulica": "Nadbystrzycka", "Numer": "40a", "Nazwa": "Kazik", "Cz1_All": 8, "Cz2_All": 4, "Cz1_UMCS": 4, "Cz2_UMCS": 2, "Cz1_UP": 1, "Cz2_UP": 0, "Cz1_KUL": 0, "Cz2_KUL": 0 }, "geometry": { "type": "Point", "coordinates": [ 22.547091516346104, 51.235115738875407 ] } },
{ "type": "Feature", "properties": { "Kategoria": "Restauracje", "Miejscowos": "Lublin", "Ulica": "Krakowskie przedmieście", "Numer": "38", "Nazwa": "Pijalnia Czekolady Wedel", "Cz1_All": 3, "Cz2_All": 2, "Cz1_UMCS": 2, "Cz2_UMCS": 1, "Cz1_UP": 1, "Cz2_UP": 1, "Cz1_KUL": 0, "Cz2_KUL": 0 }, "geometry": { "type": "Point", "coordinates": [ 22.561953005895525, 51.247844454196439 ] } },
{ "type": "Feature", "properties": { "Kategoria": "Restauracje", "Miejscowos": "Lublin", "Ulica": "Krakowskie przedmieście", "Numer": "32", "Nazwa": "Ćma", "Cz1_All": 3, "Cz2_All": 3, "Cz1_UMCS": 1, "Cz2_UMCS": 1, "Cz1_UP": 1, "Cz2_UP": 1, "Cz1_KUL": 0, "Cz2_KUL": 0 }, "geometry": { "type": "Point", "coordinates": [ 22.56264377721925, 51.247752313954315 ] } },
{ "type": "Feature", "properties": { "Kategoria": "Restauracje", "Miejscowos": "Lublin", "Ulica": "3 Maja", "Numer": "9", "Nazwa": "Riders", "Cz1_All": 2, "Cz2_All": 2, "Cz1_UMCS": 1, "Cz2_UMCS": 1, "Cz1_UP": 1, "Cz2_UP": 1, "Cz1_KUL": 0, "Cz2_KUL": 0 }, "geometry": { "type": "Point", "coordinates": [ 22.558480142437421, 51.250710539015294 ] } },
{ "type": "Feature", "properties": { "Kategoria": "Restauracje", "Miejscowos": "Lublin", "Ulica": "Żwirki i Wigury", "Numer": "4", "Nazwa": "Nie Wylej", "Cz1_All": 2, "Cz2_All": 2, "Cz1_UMCS": 1, "Cz2_UMCS": 1, "Cz1_UP": 1, "Cz2_UP": 1, "Cz1_KUL": 0, "Cz2_KUL": 0 }, "geometry": { "type": "Point", "coordinates": [ 22.550210274714257, 51.247267721883375 ] } },
{ "type": "Feature", "properties": { "Kategoria": "Restauracje", "Miejscowos": "Lublin", "Ulica": "Krakowskie przedmieście", "Numer": "20", "Nazwa": "Burger King", "Cz1_All": 2, "Cz2_All": 1, "Cz1_UMCS": 1, "Cz2_UMCS": 0, "Cz1_UP": 1, "Cz2_UP": 1, "Cz1_KUL": 0, "Cz2_KUL": 0 }, "geometry": { "type": "Point", "coordinates": [ 22.563529338695265, 51.247607806933182 ] } },
{ "type": "Feature", "properties": { "Kategoria": "Restauracje", "Miejscowos": "Lublin", "Ulica": "Jasna", "Numer": "7", "Nazwa": "Dziki Wschód", "Cz1_All": 1, "Cz2_All": 1, "Cz1_UMCS": 0, "Cz2_UMCS": 0, "Cz1_UP": 1, "Cz2_UP": 1, "Cz1_KUL": 0, "Cz2_KUL": 0 }, "geometry": { "type": "Point", "coordinates": [ 22.553262133740091, 51.248462458498565 ] } },
{ "type": "Feature", "properties": { "Kategoria": "Restauracje", "Miejscowos": "Lublin", "Ulica": "Północna", "Numer": "30a", "Nazwa": "Musi Sushi", "Cz1_All": 1, "Cz2_All": 1, "Cz1_UMCS": 0, "Cz2_UMCS": 0, "Cz1_UP": 1, "Cz2_UP": 1, "Cz1_KUL": 0, "Cz2_KUL": 0 }, "geometry": { "type": "Point", "coordinates": [ 22.555302515003508, 51.253703989906491 ] } },
{ "type": "Feature", "properties": { "Kategoria": "Muzea", "Miejscowos": "Lublin", "Ulica": "Grodzka", "Numer": "5a", "Nazwa": "Muzeum Historii Farmacji", "Cz1_All": 3, "Cz2_All": 5, "Cz1_UMCS": 0, "Cz2_UMCS": 1, "Cz1_UP": 1, "Cz2_UP": 1, "Cz1_KUL": 0, "Cz2_KUL": 0 }, "geometry": { "type": "Point", "coordinates": [ 22.568490102528273, 51.248540470564066 ] } },
{ "type": "Feature", "properties": { "Kategoria": "Restauracje", "Miejscowos": "Lublin", "Ulica": "Weteranów", "Numer": "27", "Nazwa": "Grolsch Pub", "Cz1_All": 1, "Cz2_All": 1, "Cz1_UMCS": 0, "Cz2_UMCS": 0, "Cz1_UP": 1, "Cz2_UP": 1, "Cz1_KUL": 0, "Cz2_KUL": 0 }, "geometry": { "type": "Point", "coordinates": [ 22.536727485592994, 51.247907604544885 ] } },
{ "type": "Feature", "properties": { "Kategoria": "Restauracje", "Miejscowos": "Lublin", "Ulica": "Krakowskie przedmieście", "Numer": "4", "Nazwa": "Bosko", "Cz1_All": 6, "Cz2_All": 5, "Cz1_UMCS": 3, "Cz2_UMCS": 3, "Cz1_UP": 0, "Cz2_UP": 1, "Cz1_KUL": 1, "Cz2_KUL": 1 }, "geometry": { "type": "Point", "coordinates": [ 22.565334377869302, 51.247405653521383 ] } },
{ "type": "Feature", "properties": { "Kategoria": "Restauracje", "Miejscowos": "Lublin", "Ulica": "Tadeusza Kościuszki", "Numer": "3", "Nazwa": "Boru Ramen Shop", "Cz1_All": 1, "Cz2_All": 2, "Cz1_UMCS": 0, "Cz2_UMCS": 0, "Cz1_UP": 0, "Cz2_UP": 1, "Cz1_KUL": 0, "Cz2_KUL": 0 }, "geometry": { "type": "Point", "coordinates": [ 22.559852941456853, 51.247151849520293 ] } },
{ "type": "Feature", "properties": { "Kategoria": "Restauracje", "Miejscowos": "Lublin", "Ulica": "Krakowskie przedmieście", "Numer": "7", "Nazwa": "Restauracja Browar", "Cz1_All": 0, "Cz2_All": 2, "Cz1_UMCS": 0, "Cz2_UMCS": 1, "Cz1_UP": 0, "Cz2_UP": 1, "Cz1_KUL": 0, "Cz2_KUL": 0 }, "geometry": { "type": "Point", "coordinates": [ 22.564255465544825, 51.247733208103192 ] } },
{ "type": "Feature", "properties": { "Kategoria": "Restauracje", "Miejscowos": "Lublin", "Ulica": "Bramowa", "Numer": "2", "Nazwa": "Stół i Wół", "Cz1_All": 0, "Cz2_All": 2, "Cz1_UMCS": 0, "Cz2_UMCS": 1, "Cz1_UP": 0, "Cz2_UP": 1, "Cz1_KUL": 0, "Cz2_KUL": 0 }, "geometry": { "type": "Point", "coordinates": [ 22.566618906774682, 51.247728938128226 ] } },
{ "type": "Feature", "properties": { "Kategoria": "Restauracje", "Miejscowos": "Lublin", "Ulica": "Północna", "Numer": "30a", "Nazwa": "Kuźnia", "Cz1_All": 0, "Cz2_All": 1, "Cz1_UMCS": 0, "Cz2_UMCS": 0, "Cz1_UP": 0, "Cz2_UP": 1, "Cz1_KUL": 0, "Cz2_KUL": 0 }, "geometry": { "type": "Point", "coordinates": [ 22.555302515003508, 51.253703989906491 ] } },
{ "type": "Feature", "properties": { "Kategoria": "Restauracje", "Miejscowos": "Lublin", "Ulica": "Okopowa", "Numer": "5", "Nazwa": "Tifosi", "Cz1_All": 16, "Cz2_All": 3, "Cz1_UMCS": 5, "Cz2_UMCS": 0, "Cz1_UP": 5, "Cz2_UP": 0, "Cz1_KUL": 5, "Cz2_KUL": 2 }, "geometry": { "type": "Point", "coordinates": [ 22.555896252324064, 51.245421581088372 ] } },
{ "type": "Feature", "properties": { "Kategoria": "Restauracje", "Miejscowos": "Lublin", "Ulica": "Okopowa", "Numer": "5", "Nazwa": "Pyzata Chata", "Cz1_All": 7, "Cz2_All": 2, "Cz1_UMCS": 4, "Cz2_UMCS": 2, "Cz1_UP": 2, "Cz2_UP": 0, "Cz1_KUL": 1, "Cz2_KUL": 0 }, "geometry": { "type": "Point", "coordinates": [ 22.555896252324064, 51.245421581088372 ] } },
{ "type": "Feature", "properties": { "Kategoria": "Restauracje", "Miejscowos": "Lublin", "Ulica": "Krakowskie przedmieście", "Numer": "30", "Nazwa": "Viva La Pizza", "Cz1_All": 4, "Cz2_All": 2, "Cz1_UMCS": 2, "Cz2_UMCS": 1, "Cz1_UP": 1, "Cz2_UP": 0, "Cz1_KUL": 1, "Cz2_KUL": 0 }, "geometry": { "type": "Point", "coordinates": [ 22.562828535137164, 51.24773288524451 ] } },
{ "type": "Feature", "properties": { "Kategoria": "Restauracje", "Miejscowos": "Lublin", "Ulica": "Tomasza Zana", "Numer": "50", "Nazwa": "Karczma Pod Strzechą", "Cz1_All": 4, "Cz2_All": 2, "Cz1_UMCS": 2, "Cz2_UMCS": 1, "Cz1_UP": 1, "Cz2_UP": 0, "Cz1_KUL": 0, "Cz2_KUL": 0 }, "geometry": { "type": "Point", "coordinates": [ 22.537133619398972, 51.23586150016088 ] } },
{ "type": "Feature", "properties": { "Kategoria": "Kluby", "Miejscowos": "Lublin", "Ulica": "Bernardyńsk", "Numer": "15", "Nazwa": "Radość", "Cz1_All": 2, "Cz2_All": 4, "Cz1_UMCS": 1, "Cz2_UMCS": 1, "Cz1_UP": 1, "Cz2_UP": 2, "Cz1_KUL": 0, "Cz2_KUL": 1 }, "geometry": { "type": "Point", "coordinates": [ 22.566255580638675, 51.243680597512309 ] } },
{ "type": "Feature", "properties": { "Kategoria": "Restauracje", "Miejscowos": "Lublin", "Ulica": "Cypriana Godebskiego", "Numer": "13", "Nazwa": "Czytelnia", "Cz1_All": 3, "Cz2_All": 2, "Cz1_UMCS": 1, "Cz2_UMCS": 1, "Cz1_UP": 1, "Cz2_UP": 0, "Cz1_KUL": 1, "Cz2_KUL": 1 }, "geometry": { "type": "Point", "coordinates": [ 22.535130347202927, 51.24715403646448 ] } },
{ "type": "Feature", "properties": { "Kategoria": "Restauracje", "Miejscowos": "Lublin", "Ulica": "Złota", "Numer": "2", "Nazwa": "U Fotografa", "Cz1_All": 3, "Cz2_All": 0, "Cz1_UMCS": 2, "Cz2_UMCS": 0, "Cz1_UP": 1, "Cz2_UP": 0, "Cz1_KUL": 0, "Cz2_KUL": 0 }, "geometry": { "type": "Point", "coordinates": [ 22.568687153627547, 51.247994085814653 ] } },
{ "type": "Feature", "properties": { "Kategoria": "Restauracje", "Miejscowos": "Lublin", "Ulica": "Orla", "Numer": "4", "Nazwa": "Umea", "Cz1_All": 2, "Cz2_All": 0, "Cz1_UMCS": 0, "Cz2_UMCS": 0, "Cz1_UP": 1, "Cz2_UP": 0, "Cz1_KUL": 1, "Cz2_KUL": 0 }, "geometry": { "type": "Point", "coordinates": [ 22.555955951135093, 51.244945690100373 ] } },
{ "type": "Feature", "properties": { "Kategoria": "Restauracje", "Miejscowos": "Lublin", "Ulica": "Krakowskie przedmieście", "Numer": "51", "Nazwa": "Zona Ristorante", "Cz1_All": 2, "Cz2_All": 0, "Cz1_UMCS": 0, "Cz2_UMCS": 0, "Cz1_UP": 1, "Cz2_UP": 0, "Cz1_KUL": 1, "Cz2_KUL": 0 }, "geometry": { "type": "Point", "coordinates": [ 22.553493121312933, 51.247808685350641 ] } },
{ "type": "Feature", "properties": { "Kategoria": "Restauracje", "Miejscowos": "Lublin", "Ulica": "Tadeusza Kościuszki", "Numer": "3", "Nazwa": "Ciastko bez cukru", "Cz1_All": 2, "Cz2_All": 0, "Cz1_UMCS": 1, "Cz2_UMCS": 0, "Cz1_UP": 1, "Cz2_UP": 0, "Cz1_KUL": 0, "Cz2_KUL": 0 }, "geometry": { "type": "Point", "coordinates": [ 22.559852941456853, 51.247151849520293 ] } },
{ "type": "Feature", "properties": { "Kategoria": "Restauracje", "Miejscowos": "Lublin", "Ulica": "Królewska", "Numer": "3", "Nazwa": "Zielony Talerzyk", "Cz1_All": 2, "Cz2_All": 0, "Cz1_UMCS": 1, "Cz2_UMCS": 0, "Cz1_UP": 1, "Cz2_UP": 0, "Cz1_KUL": 0, "Cz2_KUL": 0 }, "geometry": { "type": "Point", "coordinates": [ 22.56557017861639, 51.246949235686429 ] } },
{ "type": "Feature", "properties": { "Kategoria": "Restauracje", "Miejscowos": "Lublin", "Ulica": "Stanisława Staszica", "Numer": "1", "Nazwa": "Hektolitr", "Cz1_All": 1, "Cz2_All": 0, "Cz1_UMCS": 0, "Cz2_UMCS": 0, "Cz1_UP": 1, "Cz2_UP": 0, "Cz1_KUL": 0, "Cz2_KUL": 0 }, "geometry": { "type": "Point", "coordinates": [ 22.562464143067825, 51.248241885311053 ] } },
{ "type": "Feature", "properties": { "Kategoria": "Restauracje", "Miejscowos": "Lublin", "Ulica": "Nałęczowska", "Numer": "18", "Nazwa": "Kuchnia Otwarta", "Cz1_All": 1, "Cz2_All": 0, "Cz1_UMCS": 0, "Cz2_UMCS": 0, "Cz1_UP": 1, "Cz2_UP": 0, "Cz1_KUL": 0, "Cz2_KUL": 0 }, "geometry": { "type": "Point", "coordinates": [ 22.516159010878617, 51.249150098114356 ] } },
{ "type": "Feature", "properties": { "Kategoria": "Restauracje", "Miejscowos": "Lublin", "Ulica": "Koralowa", "Numer": "21", "Nazwa": "Chrupko", "Cz1_All": 1, "Cz2_All": 0, "Cz1_UMCS": 0, "Cz2_UMCS": 0, "Cz1_UP": 1, "Cz2_UP": 0, "Cz1_KUL": 0, "Cz2_KUL": 0 }, "geometry": { "type": "Point", "coordinates": [ 22.485262310420225, 51.223421787377582 ] } },
{ "type": "Feature", "properties": { "Kategoria": "Restauracje", "Miejscowos": "Lublin", "Ulica": "Krakowskie przedmieście", "Numer": "9", "Nazwa": "Bobby Burger", "Cz1_All": 1, "Cz2_All": 0, "Cz1_UMCS": 0, "Cz2_UMCS": 0, "Cz1_UP": 1, "Cz2_UP": 0, "Cz1_KUL": 0, "Cz2_KUL": 0 }, "geometry": { "type": "Point", "coordinates": [ 22.564136074879748, 51.247735039176654 ] } },
{ "type": "Feature", "properties": { "Kategoria": "Restauracje", "Miejscowos": "Lublin", "Ulica": "Jasna", "Numer": "7", "Nazwa": "Cafe Lulu", "Cz1_All": 1, "Cz2_All": 0, "Cz1_UMCS": 0, "Cz2_UMCS": 0, "Cz1_UP": 1, "Cz2_UP": 0, "Cz1_KUL": 0, "Cz2_KUL": 0 }, "geometry": { "type": "Point", "coordinates": [ 22.553262133740091, 51.248462458498565 ] } },
{ "type": "Feature", "properties": { "Kategoria": "Restauracje", "Miejscowos": "Lublin", "Ulica": "Grodzka", "Numer": "1", "Nazwa": "Bagatela", "Cz1_All": 1, "Cz2_All": 0, "Cz1_UMCS": 0, "Cz2_UMCS": 0, "Cz1_UP": 1, "Cz2_UP": 0, "Cz1_KUL": 0, "Cz2_KUL": 0 }, "geometry": { "type": "Point", "coordinates": [ 22.568202751528961, 51.248321780930482 ] } },
{ "type": "Feature", "properties": { "Kategoria": "Restauracje", "Miejscowos": "Lublin", "Ulica": "Żelazowej Woli", "Numer": "1a", "Nazwa": "Crown Kebab", "Cz1_All": 1, "Cz2_All": 0, "Cz1_UMCS": 0, "Cz2_UMCS": 0, "Cz1_UP": 1, "Cz2_UP": 0, "Cz1_KUL": 0, "Cz2_KUL": 0 }, "geometry": { "type": "Point", "coordinates": [ 22.549549145716263, 51.267741655067894 ] } },
{ "type": "Feature", "properties": { "Kategoria": "Kluby", "Miejscowos": "Lublin", "Ulica": "Sądowa", "Numer": "2", "Nazwa": "Wyrko", "Cz1_All": 1, "Cz2_All": 4, "Cz1_UMCS": 0, "Cz2_UMCS": 1, "Cz1_UP": 0, "Cz2_UP": 0, "Cz1_KUL": 0, "Cz2_KUL": 1 }, "geometry": { "type": "Point", "coordinates": [ 22.553585685870317, 51.246094284193632 ] } },
{ "type": "Feature", "properties": { "Kategoria": "Kluby", "Miejscowos": "Lublin", "Ulica": "Aleja Józefa Piłsudskiego", "Numer": "22", "Nazwa": "Plener", "Cz1_All": 2, "Cz2_All": 2, "Cz1_UMCS": 2, "Cz2_UMCS": 0, "Cz1_UP": 0, "Cz2_UP": 1, "Cz1_KUL": 0, "Cz2_KUL": 1 }, "geometry": { "type": "Point", "coordinates": [ 22.564742097026503, 51.236653541975336 ] } },
{ "type": "Feature", "properties": { "Kategoria": "Kluby", "Miejscowos": "Lublin", "Ulica": "Aleja Józefa Piłsudskiego", "Numer": "13", "Nazwa": "Graffiti", "Cz1_All": 1, "Cz2_All": 0, "Cz1_UMCS": 1, "Cz2_UMCS": 0, "Cz1_UP": 0, "Cz2_UP": 0, "Cz1_KUL": 0, "Cz2_KUL": 0 }, "geometry": { "type": "Point", "coordinates": [ 22.557175162857597, 51.240376823567345 ] } },
{ "type": "Feature", "properties": { "Kategoria": "Kluby", "Miejscowos": "Lublin", "Ulica": "Orla", "Numer": "8", "Nazwa": "Blues Brothers", "Cz1_All": 1, "Cz2_All": 0, "Cz1_UMCS": 0, "Cz2_UMCS": 0, "Cz1_UP": 1, "Cz2_UP": 0, "Cz1_KUL": 0, "Cz2_KUL": 0 }, "geometry": { "type": "Point", "coordinates": [ 22.555774336903514, 51.244669262757697 ] } },
{ "type": "Feature", "properties": { "Kategoria": "Miejsca kultury", "Miejscowos": "Lublin", "Ulica": "Plac Teatralny", "Numer": "1", "Nazwa": "Centrum Spotkania Kultur", "Cz1_All": 1, "Cz2_All": 1, "Cz1_UMCS": 0, "Cz2_UMCS": 0, "Cz1_UP": 0, "Cz2_UP": 0, "Cz1_KUL": 0, "Cz2_KUL": 0 }, "geometry": { "type": "Point", "coordinates": [ 22.548553004058618, 51.247230674164655 ] } },
{ "type": "Feature", "properties": { "Kategoria": "Muzea", "Miejscowos": "Lublin", "Ulica": "Szewska", "Numer": "4", "Nazwa": "Muzeum Cebularza", "Cz1_All": 1, "Cz2_All": 2, "Cz1_UMCS": 1, "Cz2_UMCS": 0, "Cz1_UP": 0, "Cz2_UP": 2, "Cz1_KUL": 0, "Cz2_KUL": 0 }, "geometry": { "type": "Point", "coordinates": [ 22.565177835819142, 51.250640223601579 ] } },
{ "type": "Feature", "properties": { "Kategoria": "Restauracje", "Miejscowos": "Lublin", "Ulica": "Lubartowska", "Numer": "7", "Nazwa": "Anabilis", "Cz1_All": 1, "Cz2_All": 0, "Cz1_UMCS": 0, "Cz2_UMCS": 0, "Cz1_UP": 1, "Cz2_UP": 0, "Cz1_KUL": 0, "Cz2_KUL": 0 }, "geometry": { "type": "Point", "coordinates": [ 22.566128063820216, 51.248012662235439 ] } },
{ "type": "Feature", "properties": { "Kategoria": "Restauracje", "Miejscowos": "Lublin", "Ulica": "Fryderyka Chopina", "Numer": "11", "Nazwa": "Fresh Kitchen", "Cz1_All": 1, "Cz2_All": 0, "Cz1_UMCS": 0, "Cz2_UMCS": 0, "Cz1_UP": 1, "Cz2_UP": 0, "Cz1_KUL": 0, "Cz2_KUL": 0 }, "geometry": { "type": "Point", "coordinates": [ 22.553819182308775, 51.2460049271873 ] } },
{ "type": "Feature", "properties": { "Kategoria": "Restauracje", "Miejscowos": "Lublin", "Ulica": "Lipowa", "Numer": "13", "Nazwa": "North Fish", "Cz1_All": 1, "Cz2_All": 0, "Cz1_UMCS": 0, "Cz2_UMCS": 0, "Cz1_UP": 1, "Cz2_UP": 0, "Cz1_KUL": 0, "Cz2_KUL": 0 }, "geometry": { "type": "Point", "coordinates": [ 22.551981137974046, 51.244919779505992 ] } },
{ "type": "Feature", "properties": { "Kategoria": "Restauracje", "Miejscowos": "Lublin", "Ulica": "Nadbystrzycka", "Numer": "4", "Nazwa": "Dubaj", "Cz1_All": 1, "Cz2_All": 0, "Cz1_UMCS": 0, "Cz2_UMCS": 0, "Cz1_UP": 1, "Cz2_UP": 0, "Cz1_KUL": 0, "Cz2_KUL": 0 }, "geometry": { "type": "Point", "coordinates": [ 22.543895662783317, 51.234499411768091 ] } },
{ "type": "Feature", "properties": { "Kategoria": "Restauracje", "Miejscowos": "Lublin", "Ulica": "Stanisława Staszica", "Numer": "3", "Nazwa": "Podwórko", "Cz1_All": 6, "Cz2_All": 5, "Cz1_UMCS": 3, "Cz2_UMCS": 3, "Cz1_UP": 0, "Cz2_UP": 0, "Cz1_KUL": 2, "Cz2_KUL": 1 }, "geometry": { "type": "Point", "coordinates": [ 22.562382360286175, 51.249032479160086 ] } },
{ "type": "Feature", "properties": { "Kategoria": "Restauracje", "Miejscowos": "Lublin", "Ulica": "Rynek", "Numer": "7", "Nazwa": "Armenia", "Cz1_All": 4, "Cz2_All": 2, "Cz1_UMCS": 2, "Cz2_UMCS": 1, "Cz1_UP": 0, "Cz2_UP": 0, "Cz1_KUL": 1, "Cz2_KUL": 1 }, "geometry": { "type": "Point", "coordinates": [ 22.568235680214414, 51.248058265403337 ] } },
{ "type": "Feature", "properties": { "Kategoria": "Restauracje", "Miejscowos": "Lublin", "Ulica": "Świętoduska", "Numer": "6", "Nazwa": "Chisza", "Cz1_All": 3, "Cz2_All": 3, "Cz1_UMCS": 1, "Cz2_UMCS": 2, "Cz1_UP": 0, "Cz2_UP": 0, "Cz1_KUL": 2, "Cz2_KUL": 1 }, "geometry": { "type": "Point", "coordinates": [ 22.564697181781327, 51.248224056480851 ] } },
{ "type": "Feature", "properties": { "Kategoria": "Restauracje", "Miejscowos": "Lublin", "Ulica": "Aleje Racławickie", "Numer": "10", "Nazwa": "Włoska Sztuka", "Cz1_All": 3, "Cz2_All": 1, "Cz1_UMCS": 2, "Cz2_UMCS": 1, "Cz1_UP": 0, "Cz2_UP": 0, "Cz1_KUL": 1, "Cz2_KUL": 0 }, "geometry": { "type": "Point", "coordinates": [ 22.546772653253271, 51.247847572800275 ] } },
{ "type": "Feature", "properties": { "Kategoria": "Restauracje", "Miejscowos": "Lublin", "Ulica": "Grottgera", "Numer": "2", "Nazwa": "2 PiEr", "Cz1_All": 2, "Cz2_All": 2, "Cz1_UMCS": 1, "Cz2_UMCS": 1, "Cz1_UP": 0, "Cz2_UP": 0, "Cz1_KUL": 1, "Cz2_KUL": 0 }, "geometry": { "type": "Point", "coordinates": [ 22.549395569493075, 51.247278273506907 ] } },
{ "type": "Feature", "properties": { "Kategoria": "Restauracje", "Miejscowos": "Lublin", "Ulica": "Aleje Racławickie", "Numer": "8", "Nazwa": "Falla", "Cz1_All": 2, "Cz2_All": 0, "Cz1_UMCS": 1, "Cz2_UMCS": 1, "Cz1_UP": 0, "Cz2_UP": 0, "Cz1_KUL": 1, "Cz2_KUL": 0 }, "geometry": { "type": "Point", "coordinates": [ 22.550222640570325, 51.247148781420016 ] } },
{ "type": "Feature", "properties": { "Kategoria": "Restauracje", "Miejscowos": "Lublin", "Ulica": "Bramowa", "Numer": "6", "Nazwa": "Święty Spokój Music Cafe", "Cz1_All": 2, "Cz2_All": 0, "Cz1_UMCS": 1, "Cz2_UMCS": 0, "Cz1_UP": 0, "Cz2_UP": 0, "Cz1_KUL": 1, "Cz2_KUL": 0 }, "geometry": { "type": "Point", "coordinates": [ 22.566872646678192, 51.247810906604954 ] } },
{ "type": "Feature", "properties": { "Kategoria": "Restauracje", "Miejscowos": "Lublin", "Ulica": "Rybna", "Numer": "4", "Nazwa": "Między Słowami", "Cz1_All": 2, "Cz2_All": 0, "Cz1_UMCS": 1, "Cz2_UMCS": 0, "Cz1_UP": 0, "Cz2_UP": 0, "Cz1_KUL": 1, "Cz2_KUL": 0 }, "geometry": { "type": "Point", "coordinates": [ 22.567478193616189, 51.248709685296568 ] } },
{ "type": "Feature", "properties": { "Kategoria": "Restauracje", "Miejscowos": "Lublin", "Ulica": "Nałęczowska", "Numer": "65", "Nazwa": "Piri Piri", "Cz1_All": 2, "Cz2_All": 0, "Cz1_UMCS": 0, "Cz2_UMCS": 0, "Cz1_UP": 0, "Cz2_UP": 0, "Cz1_KUL": 1, "Cz2_KUL": 0 }, "geometry": { "type": "Point", "coordinates": [ 22.510252510581608, 51.251048391433315 ] } },
{ "type": "Feature", "properties": { "Kategoria": "Restauracje", "Miejscowos": "Lublin", "Ulica": "Lipowa", "Numer": "13", "Nazwa": "Costa Coffee Plaza", "Cz1_All": 2, "Cz2_All": 1, "Cz1_UMCS": 2, "Cz2_UMCS": 1, "Cz1_UP": 0, "Cz2_UP": 0, "Cz1_KUL": 0, "Cz2_KUL": 0 }, "geometry": { "type": "Point", "coordinates": [ 22.551981137974046, 51.244919779505992 ] } },
{ "type": "Feature", "properties": { "Kategoria": "Restauracje", "Miejscowos": "Lublin", "Ulica": "Jasna", "Numer": "7", "Nazwa": "Pałeczkami Sushi", "Cz1_All": 1, "Cz2_All": 1, "Cz1_UMCS": 1, "Cz2_UMCS": 0, "Cz1_UP": 0, "Cz2_UP": 0, "Cz1_KUL": 1, "Cz2_KUL": 1 }, "geometry": { "type": "Point", "coordinates": [ 22.553262133740091, 51.248462458498565 ] } },
{ "type": "Feature", "properties": { "Kategoria": "Restauracje", "Miejscowos": "Lublin", "Ulica": "Krakowskie przedmieście", "Numer": "53", "Nazwa": "Avocado", "Cz1_All": 1, "Cz2_All": 1, "Cz1_UMCS": 0, "Cz2_UMCS": 1, "Cz1_UP": 0, "Cz2_UP": 0, "Cz1_KUL": 1, "Cz2_KUL": 0 }, "geometry": { "type": "Point", "coordinates": [ 22.552920842470566, 51.24778371020026 ] } },
{ "type": "Feature", "properties": { "Kategoria": "Restauracje", "Miejscowos": "Lublin", "Ulica": "Krakowskie przedmieście", "Numer": "28", "Nazwa": "Kebab Habiby", "Cz1_All": 1, "Cz2_All": 0, "Cz1_UMCS": 0, "Cz2_UMCS": 0, "Cz1_UP": 0, "Cz2_UP": 0, "Cz1_KUL": 1, "Cz2_KUL": 0 }, "geometry": { "type": "Point", "coordinates": [ 22.563068297567906, 51.24769461240335 ] } },
{ "type": "Feature", "properties": { "Kategoria": "Restauracje", "Miejscowos": "Lublin", "Ulica": "Ewangelicka", "Numer": "6", "Nazwa": "Bistro Pazłotko", "Cz1_All": 1, "Cz2_All": 0, "Cz1_UMCS": 0, "Cz2_UMCS": 0, "Cz1_UP": 0, "Cz2_UP": 0, "Cz1_KUL": 1, "Cz2_KUL": 0 }, "geometry": { "type": "Point", "coordinates": [ 22.55441811980204, 51.248637534936499 ] } },
{ "type": "Feature", "properties": { "Kategoria": "Restauracje", "Miejscowos": "Lublin", "Ulica": "Wileńska", "Numer": "21a", "Nazwa": "Shisha", "Cz1_All": 1, "Cz2_All": 0, "Cz1_UMCS": 0, "Cz2_UMCS": 0, "Cz1_UP": 0, "Cz2_UP": 0, "Cz1_KUL": 1, "Cz2_KUL": 0 }, "geometry": { "type": "Point", "coordinates": [ 22.519159187243599, 51.24264224257464 ] } },
{ "type": "Feature", "properties": { "Kategoria": "Restauracje", "Miejscowos": "Lublin", "Ulica": "Nadbystrzycka", "Numer": "66", "Nazwa": "Sajgon", "Cz1_All": 1, "Cz2_All": 2, "Cz1_UMCS": 1, "Cz2_UMCS": 2, "Cz1_UP": 0, "Cz2_UP": 0, "Cz1_KUL": 0, "Cz2_KUL": 0 }, "geometry": { "type": "Point", "coordinates": [ 22.543120448792902, 51.23415992115887 ] } },
{ "type": "Feature", "properties": { "Kategoria": "Restauracje", "Miejscowos": "Lublin", "Ulica": "Krakowskie przedmieście", "Numer": "3", "Nazwa": "Czekoladowy", "Cz1_All": 1, "Cz2_All": 1, "Cz1_UMCS": 1, "Cz2_UMCS": 1, "Cz1_UP": 0, "Cz2_UP": 0, "Cz1_KUL": 0, "Cz2_KUL": 0 }, "geometry": { "type": "Point", "coordinates": [ 22.564737805753637, 51.247663930134841 ] } },
{ "type": "Feature", "properties": { "Kategoria": "Restauracje", "Miejscowos": "Lublin", "Ulica": "Pana Balcera", "Numer": "6a", "Nazwa": "Matteo Pizza Italiana", "Cz1_All": 1, "Cz2_All": 1, "Cz1_UMCS": 1, "Cz2_UMCS": 1, "Cz1_UP": 0, "Cz2_UP": 0, "Cz1_KUL": 0, "Cz2_KUL": 0 }, "geometry": { "type": "Point", "coordinates": [ 22.528001197961817, 51.2364605818412 ] } },
{ "type": "Feature", "properties": { "Kategoria": "Restauracje", "Miejscowos": "Lublin", "Ulica": "Rymwida", "Numer": "8", "Nazwa": "Creamy Cafe", "Cz1_All": 1, "Cz2_All": 1, "Cz1_UMCS": 1, "Cz2_UMCS": 1, "Cz1_UP": 0, "Cz2_UP": 0, "Cz1_KUL": 0, "Cz2_KUL": 0 }, "geometry": { "type": "Point", "coordinates": [ 22.528888802685145, 51.240756691385087 ] } },
{ "type": "Feature", "properties": { "Kategoria": "Restauracje", "Miejscowos": "Lublin", "Ulica": "Kołłątaja", "Numer": "4", "Nazwa": "My Kebab", "Cz1_All": 1, "Cz2_All": 0, "Cz1_UMCS": 1, "Cz2_UMCS": 0, "Cz1_UP": 0, "Cz2_UP": 0, "Cz1_KUL": 0, "Cz2_KUL": 0 }, "geometry": { "type": "Point", "coordinates": [ 22.558232077734154, 51.24725565352216 ] } },
{ "type": "Feature", "properties": { "Kategoria": "Restauracje", "Miejscowos": "Lublin", "Ulica": "Kołłątaja", "Numer": "3", "Nazwa": "Czar", "Cz1_All": 1, "Cz2_All": 0, "Cz1_UMCS": 1, "Cz2_UMCS": 0, "Cz1_UP": 0, "Cz2_UP": 0, "Cz1_KUL": 0, "Cz2_KUL": 0 }, "geometry": { "type": "Point", "coordinates": [ 22.557991229509156, 51.247225221969785 ] } },
{ "type": "Feature", "properties": { "Kategoria": "Restauracje", "Miejscowos": "Lublin", "Ulica": "Grodzka", "Numer": "7", "Nazwa": "Trakt Królewski", "Cz1_All": 1, "Cz2_All": 0, "Cz1_UMCS": 1, "Cz2_UMCS": 0, "Cz1_UP": 0, "Cz2_UP": 0, "Cz1_KUL": 0, "Cz2_KUL": 0 }, "geometry": { "type": "Point", "coordinates": [ 22.568632716241243, 51.248648247135364 ] } },
{ "type": "Feature", "properties": { "Kategoria": "Restauracje", "Miejscowos": "Lublin", "Ulica": "Krakowskie przedmieście", "Numer": "10", "Nazwa": "Nocny Portier", "Cz1_All": 1, "Cz2_All": 0, "Cz1_UMCS": 1, "Cz2_UMCS": 0, "Cz1_UP": 0, "Cz2_UP": 0, "Cz1_KUL": 0, "Cz2_KUL": 0 }, "geometry": { "type": "Point", "coordinates": [ 22.564749514799967, 51.247284606701875 ] } },
{ "type": "Feature", "properties": { "Kategoria": "Restauracje", "Miejscowos": "Lublin", "Ulica": "Kajetana Hryniewieckiego", "Numer": "70", "Nazwa": "The Bungers", "Cz1_All": 1, "Cz2_All": 0, "Cz1_UMCS": 1, "Cz2_UMCS": 0, "Cz1_UP": 0, "Cz2_UP": 0, "Cz1_KUL": 0, "Cz2_KUL": 0 }, "geometry": { "type": "Point", "coordinates": [ 22.538307125669359, 51.241851191087051 ] } },
{ "type": "Feature", "properties": { "Kategoria": "Restauracje", "Miejscowos": "Lublin", "Ulica": "Sympatyczna", "Numer": "5a", "Nazwa": "Kebab Skarpa", "Cz1_All": 1, "Cz2_All": 0, "Cz1_UMCS": 1, "Cz2_UMCS": 0, "Cz1_UP": 0, "Cz2_UP": 0, "Cz1_KUL": 0, "Cz2_KUL": 0 }, "geometry": { "type": "Point", "coordinates": [ 22.527028193964846, 51.228581221033693 ] } },
{ "type": "Feature", "properties": { "Kategoria": "Restauracje", "Miejscowos": "Lublin", "Ulica": "Aleja Unii Lubelskiej", "Numer": "2", "Nazwa": "Pasibus", "Cz1_All": 1, "Cz2_All": 0, "Cz1_UMCS": 1, "Cz2_UMCS": 0, "Cz1_UP": 0, "Cz2_UP": 0, "Cz1_KUL": 0, "Cz2_KUL": 0 }, "geometry": { "type": "Point", "coordinates": [ 22.57524400979133, 51.249899363420617 ] } },
{ "type": "Feature", "properties": { "Kategoria": "Restauracje", "Miejscowos": "Lublin", "Ulica": "Idziego Radziszewskiego", "Numer": "2", "Nazwa": "Aviator", "Cz1_All": 1, "Cz2_All": 0, "Cz1_UMCS": 1, "Cz2_UMCS": 0, "Cz1_UP": 0, "Cz2_UP": 0, "Cz1_KUL": 0, "Cz2_KUL": 0 }, "geometry": { "type": "Point", "coordinates": [ 22.547047562438451, 51.247040737455585 ] } },
{ "type": "Feature", "properties": { "Kategoria": "Restauracje", "Miejscowos": "Lublin", "Ulica": "Zygmunta Krasińskiego", "Numer": "11", "Nazwa": "Kawa I Ława", "Cz1_All": 1, "Cz2_All": 0, "Cz1_UMCS": 1, "Cz2_UMCS": 0, "Cz1_UP": 0, "Cz2_UP": 0, "Cz1_KUL": 0, "Cz2_KUL": 0 }, "geometry": { "type": "Point", "coordinates": [ 22.511985559347309, 51.242225413387985 ] } },
{ "type": "Feature", "properties": { "Kategoria": "Restauracje", "Miejscowos": "Lublin", "Ulica": "Rynek", "Numer": "2", "Nazwa": "Acerna", "Cz1_All": 1, "Cz2_All": 1, "Cz1_UMCS": 0, "Cz2_UMCS": 1, "Cz1_UP": 0, "Cz2_UP": 0, "Cz1_KUL": 0, "Cz2_KUL": 0 }, "geometry": { "type": "Point", "coordinates": [ 22.567321161776889, 51.247975774578677 ] } },
{ "type": "Feature", "properties": { "Kategoria": "Restauracje", "Miejscowos": "Lublin", "Ulica": "Rynek", "Numer": "5", "Nazwa": "Pizzeria Rynek 5", "Cz1_All": 1, "Cz2_All": 0, "Cz1_UMCS": 0, "Cz2_UMCS": 0, "Cz1_UP": 0, "Cz2_UP": 0, "Cz1_KUL": 0, "Cz2_KUL": 0 }, "geometry": { "type": "Point", "coordinates": [ 22.56768470427243, 51.248120933625195 ] } },
{ "type": "Feature", "properties": { "Kategoria": "Kluby", "Miejscowos": "Lublin", "Ulica": "Langiewicza", "Numer": "10", "Nazwa": "Pauza", "Cz1_All": 0, "Cz2_All": 1, "Cz1_UMCS": 0, "Cz2_UMCS": 1, "Cz1_UP": 0, "Cz2_UP": 0, "Cz1_KUL": 0, "Cz2_KUL": 0 }, "geometry": { "type": "Point", "coordinates": [ 22.535216448223874, 51.246296083740617 ] } },
{ "type": "Feature", "properties": { "Kategoria": "Restauracje", "Miejscowos": "Lublin", "Ulica": "Sławinkowska", "Numer": "15", "Nazwa": "Bombardino Botanik", "Cz1_All": 1, "Cz2_All": 0, "Cz1_UMCS": 0, "Cz2_UMCS": 0, "Cz1_UP": 0, "Cz2_UP": 0, "Cz1_KUL": 0, "Cz2_KUL": 0 }, "geometry": { "type": "Point", "coordinates": [ 22.512553648323209, 51.267495853544418 ] } },
{ "type": "Feature", "properties": { "Kategoria": "Restauracje", "Miejscowos": "Lublin", "Ulica": "Olejna", "Numer": "5", "Nazwa": "Publika", "Cz1_All": 1, "Cz2_All": 0, "Cz1_UMCS": 0, "Cz2_UMCS": 0, "Cz1_UP": 0, "Cz2_UP": 0, "Cz1_KUL": 0, "Cz2_KUL": 0 }, "geometry": { "type": "Point", "coordinates": [ 22.5667494850899, 51.248376341625871 ] } },
{ "type": "Feature", "properties": { "Kategoria": "Restauracje", "Miejscowos": "Lublin", "Ulica": "Weteranów", "Numer": "19a", "Nazwa": "Pizza Al Nero", "Cz1_All": 0, "Cz2_All": 1, "Cz1_UMCS": 0, "Cz2_UMCS": 0, "Cz1_UP": 0, "Cz2_UP": 0, "Cz1_KUL": 0, "Cz2_KUL": 1 }, "geometry": { "type": "Point", "coordinates": [ 22.532799693691327, 51.248762328698753 ] } },
{ "type": "Feature", "properties": { "Kategoria": "Restauracje", "Miejscowos": "Lublin", "Ulica": "Hipoteczna", "Numer": "3", "Nazwa": "Restauracja Giuseppe", "Cz1_All": 0, "Cz2_All": 1, "Cz1_UMCS": 0, "Cz2_UMCS": 0, "Cz1_UP": 0, "Cz2_UP": 0, "Cz1_KUL": 0, "Cz2_KUL": 1 }, "geometry": { "type": "Point", "coordinates": [ 22.55367454801485, 51.247099830649717 ] } },
{ "type": "Feature", "properties": { "Kategoria": "Restauracje", "Miejscowos": "Lublin", "Ulica": "Rynek", "Numer": "17", "Nazwa": "Sielsko Anielsko", "Cz1_All": 0, "Cz2_All": 2, "Cz1_UMCS": 0, "Cz2_UMCS": 2, "Cz1_UP": 0, "Cz2_UP": 0, "Cz1_KUL": 0, "Cz2_KUL": 0 }, "geometry": { "type": "Point", "coordinates": [ 22.567676742561833, 51.247587015729472 ] } },
{ "type": "Feature", "properties": { "Kategoria": "Restauracje", "Miejscowos": "Lublin", "Ulica": "Krakowskie przedmieście", "Numer": "22", "Nazwa": "Studnia", "Cz1_All": 0, "Cz2_All": 2, "Cz1_UMCS": 0, "Cz2_UMCS": 2, "Cz1_UP": 0, "Cz2_UP": 0, "Cz1_KUL": 0, "Cz2_KUL": 0 }, "geometry": { "type": "Point", "coordinates": [ 22.563390132311124, 51.247634508617928 ] } },
{ "type": "Feature", "properties": { "Kategoria": "Restauracje", "Miejscowos": "Lublin", "Ulica": "Spokojna", "Numer": "2", "Nazwa": "Spokojna 2", "Cz1_All": 0, "Cz2_All": 2, "Cz1_UMCS": 0, "Cz2_UMCS": 1, "Cz1_UP": 0, "Cz2_UP": 0, "Cz1_KUL": 0, "Cz2_KUL": 0 }, "geometry": { "type": "Point", "coordinates": [ 22.553423512871081, 51.24964192428989 ] } },
{ "type": "Feature", "properties": { "Kategoria": "Restauracje", "Miejscowos": "Lublin", "Ulica": "Radości", "Numer": "2B", "Nazwa": "Garmażerka Pyza", "Cz1_All": 0, "Cz2_All": 1, "Cz1_UMCS": 0, "Cz2_UMCS": 1, "Cz1_UP": 0, "Cz2_UP": 0, "Cz1_KUL": 0, "Cz2_KUL": 0 }, "geometry": { "type": "Point", "coordinates": [ 22.530544259006508, 51.227056306427521 ] } },
{ "type": "Feature", "properties": { "Kategoria": "Restauracje", "Miejscowos": "Lublin", "Ulica": "Krakowskie przedmieście", "Numer": "26", "Nazwa": "Las", "Cz1_All": 0, "Cz2_All": 1, "Cz1_UMCS": 0, "Cz2_UMCS": 1, "Cz1_UP": 0, "Cz2_UP": 0, "Cz1_KUL": 0, "Cz2_KUL": 0 }, "geometry": { "type": "Point", "coordinates": [ 22.563146560427626, 51.247680280665286 ] } },
{ "type": "Feature", "properties": { "Kategoria": "Restauracje", "Miejscowos": "Lublin", "Ulica": "Kaprysowa", "Numer": "2", "Nazwa": "EncePence", "Cz1_All": 0, "Cz2_All": 1, "Cz1_UMCS": 0, "Cz2_UMCS": 1, "Cz1_UP": 0, "Cz2_UP": 0, "Cz1_KUL": 0, "Cz2_KUL": 0 }, "geometry": { "type": "Point", "coordinates": [ 22.544368968025339, 51.26349463438013 ] } },
{ "type": "Feature", "properties": { "Kategoria": "Restauracje", "Miejscowos": "Lublin", "Ulica": "Fryderyka Chopina", "Numer": "33", "Nazwa": "Pomylone Gary", "Cz1_All": 0, "Cz2_All": 1, "Cz1_UMCS": 0, "Cz2_UMCS": 1, "Cz1_UP": 0, "Cz2_UP": 0, "Cz1_KUL": 0, "Cz2_KUL": 0 }, "geometry": { "type": "Point", "coordinates": [ 22.554280004225006, 51.242895725736496 ] } },
{ "type": "Feature", "properties": { "Kategoria": "Restauracje", "Miejscowos": "Lublin", "Ulica": "Świętoduska", "Numer": "4", "Nazwa": "Queso", "Cz1_All": 0, "Cz2_All": 1, "Cz1_UMCS": 0, "Cz2_UMCS": 1, "Cz1_UP": 0, "Cz2_UP": 0, "Cz1_KUL": 0, "Cz2_KUL": 0 }, "geometry": { "type": "Point", "coordinates": [ 22.564627610440724, 51.248093989427815 ] } },
{ "type": "Feature", "properties": { "Kategoria": "Restauracje", "Miejscowos": "Lublin", "Ulica": "Kapucyńska", "Numer": "6", "Nazwa": "Słodkie Bistro", "Cz1_All": 0, "Cz2_All": 1, "Cz1_UMCS": 0, "Cz2_UMCS": 1, "Cz1_UP": 0, "Cz2_UP": 0, "Cz1_KUL": 0, "Cz2_KUL": 0 }, "geometry": { "type": "Point", "coordinates": [ 22.56198390430129, 51.246841480506745 ] } },
{ "type": "Feature", "properties": { "Kategoria": "Restauracje", "Miejscowos": "Lublin", "Ulica": "Spółdzielczości Pracy", "Numer": "34", "Nazwa": "Rybarbar", "Cz1_All": 0, "Cz2_All": 1, "Cz1_UMCS": 0, "Cz2_UMCS": 0, "Cz1_UP": 0, "Cz2_UP": 0, "Cz1_KUL": 0, "Cz2_KUL": 0 }, "geometry": { "type": "Point", "coordinates": [ 22.571674975989009, 51.265937411047837 ] } },
{ "type": "Feature", "properties": { "Kategoria": "Place", "Miejscowos": "Lublin", "Ulica": null, "Numer": null, "Nazwa": "Plac Zamkowy", "Cz1_All": 52, "Cz2_All": 57, "Cz1_UMCS": 22, "Cz2_UMCS": 14, "Cz1_UP": 19, "Cz2_UP": 21, "Cz1_KUL": 7, "Cz2_KUL": 9 }, "geometry": { "type": "Point", "coordinates": [ 22.570086429521016, 51.250568932674426 ] } },
{ "type": "Feature", "properties": { "Kategoria": "Obszary Zielone", "Miejscowos": "Lublin", "Ulica": null, "Numer": null, "Nazwa": "Park Ludowy", "Cz1_All": 41, "Cz2_All": 36, "Cz1_UMCS": 23, "Cz2_UMCS": 20, "Cz1_UP": 11, "Cz2_UP": 9, "Cz1_KUL": 2, "Cz2_KUL": 4 }, "geometry": { "type": "Point", "coordinates": [ 22.564416839115705, 51.237043153735613 ] } },
{ "type": "Feature", "properties": { "Kategoria": "Place", "Miejscowos": "Lublin", "Ulica": null, "Numer": null, "Nazwa": "Plac Wolności", "Cz1_All": 31, "Cz2_All": 26, "Cz1_UMCS": 12, "Cz2_UMCS": 6, "Cz1_UP": 10, "Cz2_UP": 6, "Cz1_KUL": 4, "Cz2_KUL": 2 }, "geometry": { "type": "Point", "coordinates": [ 22.563916499116637, 51.246935355468423 ] } },
{ "type": "Feature", "properties": { "Kategoria": "Place", "Miejscowos": "Lublin", "Ulica": null, "Numer": null, "Nazwa": "Plac po Farze", "Cz1_All": 29, "Cz2_All": 34, "Cz1_UMCS": 15, "Cz2_UMCS": 8, "Cz1_UP": 7, "Cz2_UP": 7, "Cz1_KUL": 4, "Cz2_KUL": 5 }, "geometry": { "type": "Point", "coordinates": [ 22.569226113461102, 51.248774127236409 ] } },
{ "type": "Feature", "properties": { "Kategoria": "Place", "Miejscowos": "Lublin", "Ulica": null, "Numer": null, "Nazwa": "Plac Im. Lecha Kaczyńskiego", "Cz1_All": 24, "Cz2_All": 17, "Cz1_UMCS": 11, "Cz2_UMCS": 4, "Cz1_UP": 6, "Cz2_UP": 3, "Cz1_KUL": 1, "Cz2_KUL": 1 }, "geometry": { "type": "Point", "coordinates": [ 22.556510559742055, 51.246639694157309 ] } },
{ "type": "Feature", "properties": { "Kategoria": "Place", "Miejscowos": "Lublin", "Ulica": null, "Numer": null, "Nazwa": "Plac Teatralny", "Cz1_All": 20, "Cz2_All": 20, "Cz1_UMCS": 6, "Cz2_UMCS": 4, "Cz1_UP": 7, "Cz2_UP": 5, "Cz1_KUL": 1, "Cz2_KUL": 4 }, "geometry": { "type": "Point", "coordinates": [ 22.548530099336485, 51.247482051002493 ] } },
{ "type": "Feature", "properties": { "Kategoria": "Restauracje", "Miejscowos": "Lublin", "Ulica": "Narutowicza", "Numer": "9", "Nazwa": "Bar-a-Boo", "Cz1_All": 30, "Cz2_All": 15, "Cz1_UMCS": 14, "Cz2_UMCS": 8, "Cz1_UP": 7, "Cz2_UP": 3, "Cz1_KUL": 6, "Cz2_KUL": 2 }, "geometry": { "type": "Point", "coordinates": [ 22.563448779463833, 51.247216897477372 ] } },
{ "type": "Feature", "properties": { "Kategoria": "Restauracje", "Miejscowos": "Lublin", "Ulica": "Narutowicza", "Numer": "9", "Nazwa": "Czarna Owca", "Cz1_All": 10, "Cz2_All": 5, "Cz1_UMCS": 5, "Cz2_UMCS": 1, "Cz1_UP": 2, "Cz2_UP": 2, "Cz1_KUL": 0, "Cz2_KUL": 0 }, "geometry": { "type": "Point", "coordinates": [ 22.563290693139866, 51.247068182045375 ] } },
{ "type": "Feature", "properties": { "Kategoria": "Muzea", "Miejscowos": "Lublin", "Ulica": "Uniwersytecka", "Numer": "1", "Nazwa": "Muzeum Martyrologii \"\"Pod Zegarem\"", "Cz1_All": 8, "Cz2_All": 7, "Cz1_UMCS": 1, "Cz2_UMCS": 3, "Cz1_UP": 0, "Cz2_UP": 1, "Cz1_KUL": 1, "Cz2_KUL": 1 }, "geometry": { "type": "Point", "coordinates": [ 22.546242508778253, 51.246733682835362 ] } },
{ "type": "Feature", "properties": { "Kategoria": "Place", "Miejscowos": "Lublin", "Ulica": null, "Numer": null, "Nazwa": "Plac Rybny", "Cz1_All": 7, "Cz2_All": 14, "Cz1_UMCS": 2, "Cz2_UMCS": 3, "Cz1_UP": 1, "Cz2_UP": 5, "Cz1_KUL": 2, "Cz2_KUL": 3 }, "geometry": { "type": "Point", "coordinates": [ 22.567763801655023, 51.249135384855244 ] } },
{ "type": "Feature", "properties": { "Kategoria": "Kluby", "Miejscowos": "Lublin", "Ulica": "Krakowskie Przedmieście", "Numer": "40", "Nazwa": "Serce", "Cz1_All": 6, "Cz2_All": 2, "Cz1_UMCS": 1, "Cz2_UMCS": 1, "Cz1_UP": 5, "Cz2_UP": 1, "Cz1_KUL": 0, "Cz2_KUL": 0 }, "geometry": { "type": "Point", "coordinates": [ 22.561261869274478, 51.247412352422053 ] } },
{ "type": "Feature", "properties": { "Kategoria": "Restauracje", "Miejscowos": "Lublin", "Ulica": "Langiewicza", "Numer": "4", "Nazwa": "Pub Paragraf 14", "Cz1_All": 5, "Cz2_All": 2, "Cz1_UMCS": 1, "Cz2_UMCS": 0, "Cz1_UP": 3, "Cz2_UP": 1, "Cz1_KUL": 1, "Cz2_KUL": 1 }, "geometry": { "type": "Point", "coordinates": [ 22.534567898657379, 51.246022503953512 ] } },
{ "type": "Feature", "properties": { "Kategoria": "Place", "Miejscowos": "Lublin", "Ulica": null, "Numer": null, "Nazwa": "Plac Łokietka", "Cz1_All": 4, "Cz2_All": 8, "Cz1_UMCS": 1, "Cz2_UMCS": 3, "Cz1_UP": 1, "Cz2_UP": 0, "Cz1_KUL": 1, "Cz2_KUL": 0 }, "geometry": { "type": "Point", "coordinates": [ 22.565690093460248, 51.247496886769291 ] } },
{ "type": "Feature", "properties": { "Kategoria": "Restauracje", "Miejscowos": "Lublin", "Ulica": "Peowiaków", "Numer": "2", "Nazwa": "Thai Story", "Cz1_All": 2, "Cz2_All": 2, "Cz1_UMCS": 1, "Cz2_UMCS": 1, "Cz1_UP": 1, "Cz2_UP": 1, "Cz1_KUL": 0, "Cz2_KUL": 0 }, "geometry": { "type": "Point", "coordinates": [ 22.560449262026612, 51.24624638761275 ] } },
{ "type": "Feature", "properties": { "Kategoria": "Restauracje", "Miejscowos": "Lublin", "Ulica": null, "Numer": null, "Nazwa": "Hades", "Cz1_All": 1, "Cz2_All": 1, "Cz1_UMCS": 0, "Cz2_UMCS": 0, "Cz1_UP": 1, "Cz2_UP": 1, "Cz1_KUL": 0, "Cz2_KUL": 0 }, "geometry": { "type": "Point", "coordinates": [ 22.569793397644467, 51.249567092698086 ] } },
{ "type": "Feature", "properties": { "Kategoria": "Obszary Zielone", "Miejscowos": "Lublin", "Ulica": null, "Numer": null, "Nazwa": "Stary Gaj", "Cz1_All": 2, "Cz2_All": 1, "Cz1_UMCS": 1, "Cz2_UMCS": 0, "Cz1_UP": 0, "Cz2_UP": 0, "Cz1_KUL": 1, "Cz2_KUL": 0 }, "geometry": { "type": "Point", "coordinates": [ 22.53056294584297, 51.217025754652731 ] } },
{ "type": "Feature", "properties": { "Kategoria": "Obszary Zielone", "Miejscowos": "Lublin", "Ulica": null, "Numer": null, "Nazwa": "Wąwóz Rury", "Cz1_All": 2, "Cz2_All": 0, "Cz1_UMCS": 1, "Cz2_UMCS": 0, "Cz1_UP": 0, "Cz2_UP": 0, "Cz1_KUL": 1, "Cz2_KUL": 0 }, "geometry": { "type": "Point", "coordinates": [ 22.53585178877735, 51.230503128425475 ] } },
{ "type": "Feature", "properties": { "Kategoria": "Obszary Zielone", "Miejscowos": "Lublin", "Ulica": null, "Numer": null, "Nazwa": "Zalew Zemborzycki", "Cz1_All": 2, "Cz2_All": 0, "Cz1_UMCS": 0, "Cz2_UMCS": 0, "Cz1_UP": 2, "Cz2_UP": 0, "Cz1_KUL": 1, "Cz2_KUL": 0 }, "geometry": { "type": "Point", "coordinates": [ 22.536024449631505, 51.193445617265077 ] } },
{ "type": "Feature", "properties": { "Kategoria": "Obszary Zielone", "Miejscowos": "Lublin", "Ulica": null, "Numer": null, "Nazwa": "Park Akademicki", "Cz1_All": 1, "Cz2_All": 1, "Cz1_UMCS": 0, "Cz2_UMCS": 1, "Cz1_UP": 1, "Cz2_UP": 0, "Cz1_KUL": 0, "Cz2_KUL": 0 }, "geometry": { "type": "Point", "coordinates": [ 22.535524859530646, 51.244109302447413 ] } },
{ "type": "Feature", "properties": { "Kategoria": "Obszary Zielone", "Miejscowos": "Lublin", "Ulica": null, "Numer": null, "Nazwa": "Górki Czechowskie", "Cz1_All": 1, "Cz2_All": 0, "Cz1_UMCS": 0, "Cz2_UMCS": 0, "Cz1_UP": 0, "Cz2_UP": 0, "Cz1_KUL": 0, "Cz2_KUL": 0 }, "geometry": { "type": "Point", "coordinates": [ 22.529538136592112, 51.2674477147647 ] } },
{ "type": "Feature", "properties": { "Kategoria": "Obszary Zielone", "Miejscowos": "Lublin", "Ulica": null, "Numer": null, "Nazwa": "Park Bronowice", "Cz1_All": 1, "Cz2_All": 0, "Cz1_UMCS": 0, "Cz2_UMCS": 0, "Cz1_UP": 0, "Cz2_UP": 0, "Cz1_KUL": 0, "Cz2_KUL": 0 }, "geometry": { "type": "Point", "coordinates": [ 22.574881431225631, 51.237397535837445 ] } },
{ "type": "Feature", "properties": { "Kategoria": "Restauracje", "Miejscowos": "Lublin", "Ulica": "Krakowskie Przemieście", "Numer": "40", "Nazwa": "U-Boot", "Cz1_All": 9, "Cz2_All": 2, "Cz1_UMCS": 3, "Cz2_UMCS": 1, "Cz1_UP": 4, "Cz2_UP": 0, "Cz1_KUL": 1, "Cz2_KUL": 0 }, "geometry": { "type": "Point", "coordinates": [ 22.561256540222754, 51.247622121319445 ] } },
{ "type": "Feature", "properties": { "Kategoria": "Kluby", "Miejscowos": "Lublin", "Ulica": "Grodzka", "Numer": "3", "Nazwa": "Underground", "Cz1_All": 1, "Cz2_All": 1, "Cz1_UMCS": 1, "Cz2_UMCS": 1, "Cz1_UP": 0, "Cz2_UP": 0, "Cz1_KUL": 0, "Cz2_KUL": 0 }, "geometry": { "type": "Point", "coordinates": [ 22.568392107814404, 51.248429651926116 ] } },
{ "type": "Feature", "properties": { "Kategoria": "Place", "Miejscowos": "Lublin", "Ulica": null, "Numer": null, "Nazwa": "Plac Bychawski", "Cz1_All": 1, "Cz2_All": 0, "Cz1_UMCS": 0, "Cz2_UMCS": 0, "Cz1_UP": 1, "Cz2_UP": 0, "Cz1_KUL": 0, "Cz2_KUL": 0 }, "geometry": { "type": "Point", "coordinates": [ 22.571247864137717, 51.234362011053911 ] } },
{ "type": "Feature", "properties": { "Kategoria": "Restauracje", "Miejscowos": "Lublin", "Ulica": "Aleje Racławickie", "Numer": "2", "Nazwa": "Astoria", "Cz1_All": 1, "Cz2_All": 0, "Cz1_UMCS": 0, "Cz2_UMCS": 0, "Cz1_UP": 0, "Cz2_UP": 0, "Cz1_KUL": 1, "Cz2_KUL": 0 }, "geometry": { "type": "Point", "coordinates": [ 22.55129841012943, 51.247418309224884 ] } },
{ "type": "Feature", "properties": { "Kategoria": "Place", "Miejscowos": "Lublin", "Ulica": null, "Numer": null, "Nazwa": "Plac Litewski", "Cz1_All": 114, "Cz2_All": 88, "Cz1_UMCS": 48, "Cz2_UMCS": 39, "Cz1_UP": 42, "Cz2_UP": 30, "Cz1_KUL": 14, "Cz2_KUL": 10 }, "geometry": { "type": "Point", "coordinates": [ 22.559448738865036, 51.248097467857477 ] } }
]
}
