{
"type": "FeatureCollection",
"name": "szlaki_propozycje",
"crs": { "type": "name", "properties": { "name": "urn:ogc:def:crs:OGC:1.3:CRS84" } },
"features": [
{ "type": "Feature", "properties": { "miejscowo": "Lublin", "ulica": "Zamkowa", "numer": "1", "nazwa": "Muzeum na Zamku", "szlak_id": "1", "szlak_name": "Szlak najpopularniejszych obiektów wg. Studentów lubelskich uczelni cz. II", "przys_nr": "1", "przys_name": "Zamek Lubelski" }, "geometry": { "type": "Point", "coordinates": [ 22.571740145131564, 51.250511178765557 ] } },
{ "type": "Feature", "properties": { "miejscowo": "Lublin", "ulica": "Stanisława Staszica", "numer": "3", "nazwa": "Podwórko", "szlak_id": "1", "szlak_name": "Szlak najpopularniejszych obiektów wg. Studentów lubelskich uczelni cz. II", "przys_nr": "3", "przys_name": "Podwórko" }, "geometry": { "type": "Point", "coordinates": [ 22.562559390786394, 51.248946460207854 ] } },
{ "type": "Feature", "properties": { "miejscowo": "Lublin", "ulica": "Krakowskie przedmieście", "numer": "38", "nazwa": "Pijalnia Czekolady Wedel", "szlak_id": "1", "szlak_name": "Szlak najpopularniejszych obiektów wg. Studentów lubelskich uczelni cz. II", "przys_nr": "5", "przys_name": "Pijalnia Czekolady Wedel" }, "geometry": { "type": "Point", "coordinates": [ 22.561824876882831, 51.24783421318039 ] } },
{ "type": "Feature", "properties": { "miejscowo": "Lublin", "ulica": "Aleje Racławickie", "numer": "14", "nazwa": "Ogród Saski", "szlak_id": "1", "szlak_name": "Szlak najpopularniejszych obiektów wg. Studentów lubelskich uczelni cz. II", "przys_nr": "6", "przys_name": "Ogród Saski" }, "geometry": { "type": "Point", "coordinates": [ 22.548235707169987, 51.249118766358791 ] } },
{ "type": "Feature", "properties": { "miejscowo": "Lublin", "ulica": "Plac Teatralny", "numer": "1", "nazwa": "Centrum Spotkania Kultur", "szlak_id": "1", "szlak_name": "Szlak najpopularniejszych obiektów wg. Studentów lubelskich uczelni cz. II", "przys_nr": "7", "przys_name": "Centrum Spotkania Kultur" }, "geometry": { "type": "Point", "coordinates": [ 22.548553004058615, 51.247230674164655 ] } },
{ "type": "Feature", "properties": { "miejscowo": "Lublin", "ulica": "Willowa", "numer": "58", "nazwa": "Ogród Botaniczny UMCS", "szlak_id": "2", "szlak_name": "Szlak UMCS", "przys_nr": "1", "przys_name": "Ogród Botaniczny UMCS" }, "geometry": { "type": "Point", "coordinates": [ 22.516717884205004, 51.265688553762885 ] } },
{ "type": "Feature", "properties": { "miejscowo": "Lublin", "ulica": "Głęboka", "numer": "45", "nazwa": "Wydział Politologii i Dziennikarstwa UMCS", "szlak_id": "2", "szlak_name": "Szlak UMCS", "przys_nr": "2", "przys_name": "Kampus Zachodni" }, "geometry": { "type": "Point", "coordinates": [ 22.524289846779219, 51.247043852716047 ] } },
{ "type": "Feature", "properties": { "miejscowo": "Lublin", "ulica": "Plac Teatralny", "numer": "1", "nazwa": "Centrum Spotkania Kultur", "szlak_id": "2", "szlak_name": "Szlak UMCS", "przys_nr": "5", "przys_name": "Centrum Spotkania Kultur" }, "geometry": { "type": "Point", "coordinates": [ 22.548553004058615, 51.247230674164655 ] } },
{ "type": "Feature", "properties": { "miejscowo": "Lublin", "ulica": "Plac Litewski", "numer": "3", "nazwa": "Pałac Lubomirskich", "szlak_id": "2", "szlak_name": "Szlak UMCS", "przys_nr": "6", "przys_name": "Pałac Lubomirskich" }, "geometry": { "type": "Point", "coordinates": [ 22.560464316138621, 51.249077148344412 ] } },
{ "type": "Feature", "properties": { "miejscowo": "Lublin", "ulica": "Krakowskie Przedmieście", "numer": "25", "nazwa": "Ostro", "szlak_id": "2", "szlak_name": "Szlak UMCS", "przys_nr": "7", "przys_name": "Ostro" }, "geometry": { "type": "Point", "coordinates": [ 22.56241274406052, 51.247978137497761 ] } },
{ "type": "Feature", "properties": { "miejscowo": "Lublin", "ulica": "Aleje Racławickie", "numer": "11", "nazwa": "Dziedziniec KUL", "szlak_id": "3", "szlak_name": "Szlak KUL", "przys_nr": "1", "przys_name": "Dziedziniec KUL" }, "geometry": { "type": "Point", "coordinates": [ 22.544838657932416, 51.247526868831109 ] } },
{ "type": "Feature", "properties": { "miejscowo": "Lublin", "ulica": "Aleje Racławickie", "numer": "14", "nazwa": "Ogród Saski", "szlak_id": "3", "szlak_name": "Szlak KUL", "przys_nr": "2", "przys_name": "Ogród Saski" }, "geometry": { "type": "Point", "coordinates": [ 22.548270509386168, 51.249134571836017 ] } },
{ "type": "Feature", "properties": { "miejscowo": "Lublin", "ulica": "Krakowskie przedmieście", "numer": "51", "nazwa": "ParZona", "szlak_id": "3", "szlak_name": "Szlak KUL", "przys_nr": "3", "przys_name": "ParZona" }, "geometry": { "type": "Point", "coordinates": [ 22.553493121312933, 51.247808685350641 ] } },
{ "type": "Feature", "properties": { "miejscowo": "Lublin", "ulica": "Narutowicza", "numer": "17", "nazwa": "Teatr im. J. Osterwy", "szlak_id": "3", "szlak_name": "Szlak KUL", "przys_nr": "5", "przys_name": "Teatr im. J. Osterwy" }, "geometry": { "type": "Point", "coordinates": [ 22.561556785481415, 51.246452988118847 ] } },
{ "type": "Feature", "properties": { "miejscowo": "Lublin", "ulica": "Krakowskie przedmieście", "numer": "10", "nazwa": "Pelier", "szlak_id": "3", "szlak_name": "Szlak KUL", "przys_nr": "6", "przys_name": "Pelier" }, "geometry": { "type": "Point", "coordinates": [ 22.564696920199523, 51.247467820707428 ] } },
{ "type": "Feature", "properties": { "miejscowo": "Lublin", "ulica": "Bramowa", "numer": "2", "nazwa": "Brama Krakowska", "szlak_id": "3", "szlak_name": "Szlak KUL", "przys_nr": "7", "przys_name": "Brama Krakowska" }, "geometry": { "type": "Point", "coordinates": [ 22.566287280887785, 51.247536710027255 ] } },
{ "type": "Feature", "properties": { "miejscowo": "Lublin", "ulica": "Narutowicza", "numer": "9", "nazwa": "Bar-a-Boo", "szlak_id": "1", "szlak_name": "Szlak najpopularniejszych obiektów wg. Studentów lubelskich uczelni cz. II", "przys_nr": "2", "przys_name": "Bar-a-Boo" }, "geometry": { "type": "Point", "coordinates": [ 22.563434632432095, 51.247203720820451 ] } },
{ "type": "Feature", "properties": { "miejscowo": "Lublin", "ulica": "Plac Litewski", "numer": null, "nazwa": "Plac Litewski", "szlak_id": "1", "szlak_name": "Szlak najpopularniejszych obiektów wg. Studentów lubelskich uczelni cz. II", "przys_nr": "4", "przys_name": "Plac Litewski" }, "geometry": { "type": "Point", "coordinates": [ 22.559446382357059, 51.248195582073222 ] } },
{ "type": "Feature", "properties": { "miejscowo": "Lublin", "ulica": "Langiewicza", "numer": "4", "nazwa": "Paragraf 14", "szlak_id": "2", "szlak_name": "Szlak UMCS", "przys_nr": "3", "przys_name": "Paragraf 14" }, "geometry": { "type": "Point", "coordinates": [ 22.53456430911859, 51.246019783251903 ] } },
{ "type": "Feature", "properties": { "miejscowo": "Lublin", "ulica": "Plac Marii Curie-Skłodowskiej", "numer": null, "nazwa": "Plac Marii Curie-Skłodowskiej", "szlak_id": "2", "szlak_name": "Szlak UMCS", "przys_nr": "4", "przys_name": "Plac Marii Curie-Skłodowskiej" }, "geometry": { "type": "Point", "coordinates": [ 22.541622209674159, 51.245512910720642 ] } },
{ "type": "Feature", "properties": { "miejscowo": "Lublin", "ulica": "Plac Im. Lecha Kaczyńskiego", "numer": null, "nazwa": "Plac Im. Lecha Kaczyńskiego", "szlak_id": "3", "szlak_name": "Szlak KUL", "przys_nr": "4", "przys_name": "Plac Im. Lecha Kaczyńskiego" }, "geometry": { "type": "Point", "coordinates": [ 22.556509709982915, 51.246638582668915 ] } }
]
}
